$GPRMC,173933,A,2339.616559,S,04631.817233,W,000.45,17.8,190723,17.8,W,A*3A
$GPRMC,173933,A,2339.616533,S,04631.817222,W,000.53,17.6,190723,17.8,W,A*3F
$GPRMC,173933,A,2339.616499,S,04631.817207,W,000.69,19.7,190723,17.8,W,A*3F
$GPRMC,173934,A,2339.616457,S,04631.817193,W,000.82,16.6,190723,17.8,W,A*3F
$GPRMC,173934,A,2339.616409,S,04631.817176,W,000.95,16.5,190723,17.8,W,A*3A
$GPRMC,173934,A,2339.616351,S,04631.817159,W,001.08,15.2,190723,17.8,W,A*3C
$GPRMC,173934,A,2339.616290,S,04631.817144,W,001.16,12.6,190723,17.8,W,A*30
$GPRMC,173934,A,2339.616226,S,04631.817122,W,001.24,14.7,190723,17.8,W,A*3B
$GPRMC,173935,A,2339.616153,S,04631.817095,W,001.42,15.6,190723,17.8,W,A*36
$GPRMC,173935,A,2339.616070,S,04631.817074,W,001.58,12.9,190723,17.8,W,A*3A
$GPRMC,173935,A,2339.615976,S,04631.817053,W,001.75,12.5,190723,17.8,W,A*30
$GPRMC,173935,A,2339.615879,S,04631.817027,W,001.85,14.2,190723,17.8,W,A*33
$GPRMC,173935,A,2339.615775,S,04631.817000,W,001.94,16.2,190723,17.8,W,A*37
$GPRMC,173936,A,2339.615666,S,04631.816979,W,002.03,13.3,190723,17.8,W,A*38
$GPRMC,173936,A,2339.615556,S,04631.816955,W,002.09,12.7,190723,17.8,W,A*39
$GPRMC,173936,A,2339.615444,S,04631.816921,W,002.13,14.5,190723,17.8,W,A*37
$GPRMC,173936,A,2339.615328,S,04631.816888,W,002.21,15.1,190723,17.8,W,A*3C
$GPRMC,173936,A,2339.615208,S,04631.816859,W,002.23,13.3,190723,17.8,W,A*35
$GPRMC,173937,A,2339.615087,S,04631.816822,W,002.30,14.0,190723,17.8,W,A*3B
$GPRMC,173937,A,2339.614967,S,04631.816780,W,002.34,14.4,190723,17.8,W,A*3A
$GPRMC,173937,A,2339.614846,S,04631.816738,W,002.33,15.0,190723,17.8,W,A*39
$GPRMC,173937,A,2339.614727,S,04631.816690,W,002.30,16.1,190723,17.8,W,A*33
$GPRMC,173937,A,2339.614608,S,04631.816653,W,002.28,14.8,190723,17.8,W,A*32
$GPRMC,173938,A,2339.614492,S,04631.816611,W,002.22,15.8,190723,17.8,W,A*31
$GPRMC,173938,A,2339.614371,S,04631.816567,W,002.23,15.6,190723,17.8,W,A*36
$GPRMC,173938,A,2339.614247,S,04631.816516,W,002.34,17.4,190723,17.8,W,A*32
$GPRMC,173938,A,2339.614117,S,04631.816468,W,002.49,17.1,190723,17.8,W,A*33
$GPRMC,173938,A,2339.613979,S,04631.816422,W,002.65,16.3,190723,17.8,W,A*37
$GPRMC,173939,A,2339.613834,S,04631.816383,W,002.80,14.7,190723,17.8,W,A*3F
$GPRMC,173939,A,2339.613684,S,04631.816334,W,002.91,15.8,190723,17.8,W,A*38
$GPRMC,173939,A,2339.613538,S,04631.816276,W,002.88,18.1,190723,17.8,W,A*37
$GPRMC,173939,A,2339.613389,S,04631.816214,W,002.88,19.5,190723,17.8,W,A*3A
$GPRMC,173939,A,2339.613242,S,04631.816152,W,002.83,20.6,190723,17.8,W,A*3F
$GPRMC,173940,A,2339.613099,S,04631.816087,W,002.79,21.9,190723,17.8,W,A*37
$GPRMC,173940,A,2339.612950,S,04631.816022,W,002.86,21.7,190723,17.8,W,A*3B
$GPRMC,173940,A,2339.612797,S,04631.815957,W,002.93,21.6,190723,17.8,W,A*33
$GPRMC,173940,A,2339.612638,S,04631.815887,W,003.06,22.2,190723,17.8,W,A*31
$GPRMC,173940,A,2339.612473,S,04631.815814,W,003.25,22.9,190723,17.8,W,A*3C
$GPRMC,173941,A,2339.612305,S,04631.815740,W,003.35,22.6,190723,17.8,W,A*3B
$GPRMC,173941,A,2339.612138,S,04631.815666,W,003.34,22.5,190723,17.8,W,A*30
$GPRMC,173941,A,2339.611969,S,04631.815576,W,003.35,23.5,190723,17.8,W,A*3D
$GPRMC,173941,A,2339.611793,S,04631.815499,W,003.39,21.9,190723,17.8,W,A*34
$GPRMC,173941,A,2339.611614,S,04631.815420,W,003.43,19.9,190723,17.8,W,A*3E
$GPRMC,173942,A,2339.611445,S,04631.815333,W,003.37,21.9,190723,17.8,W,A*36
$GPRMC,173942,A,2339.611277,S,04631.815236,W,003.32,24.7,190723,17.8,W,A*3B
$GPRMC,173942,A,2339.611110,S,04631.815150,W,003.29,24.9,190723,17.8,W,A*3E
$GPRMC,173942,A,2339.610942,S,04631.815070,W,003.19,24.8,190723,17.8,W,A*31
$GPRMC,173942,A,2339.610777,S,04631.814992,W,003.15,24.2,190723,17.8,W,A*3B
$GPRMC,173943,A,2339.610606,S,04631.814909,W,003.29,23.7,190723,17.8,W,A*32
$GPRMC,173943,A,2339.610437,S,04631.814832,W,003.34,22.8,190723,17.8,W,A*39
$GPRMC,173943,A,2339.610270,S,04631.814747,W,003.33,23.9,190723,17.8,W,A*36
$GPRMC,173943,A,2339.610106,S,04631.814667,W,003.23,23.5,190723,17.8,W,A*3A
$GPRMC,173943,A,2339.609944,S,04631.814586,W,003.20,23.6,190723,17.8,W,A*30
$GPRMC,173944,A,2339.609785,S,04631.814501,W,003.18,24.8,190723,17.8,W,A*39
$GPRMC,173944,A,2339.609617,S,04631.814428,W,003.27,24.4,190723,17.8,W,A*39
$GPRMC,173944,A,2339.609452,S,04631.814357,W,003.31,23.3,190723,17.8,W,A*32
$GPRMC,173944,A,2339.609293,S,04631.814284,W,003.27,24.0,190723,17.8,W,A*35
$GPRMC,173944,A,2339.609136,S,04631.814206,W,003.22,25.4,190723,17.8,W,A*33
$GPRMC,173945,A,2339.608980,S,04631.814134,W,003.17,25.5,190723,17.8,W,A*33
$GPRMC,173945,A,2339.608820,S,04631.814060,W,003.22,25.7,190723,17.8,W,A*3C
$GPRMC,173945,A,2339.608657,S,04631.813988,W,003.24,25.1,190723,17.8,W,A*3A
$GPRMC,173945,A,2339.608491,S,04631.813916,W,003.26,23.6,190723,17.8,W,A*36
$GPRMC,173945,A,2339.608329,S,04631.813838,W,003.25,24.2,190723,17.8,W,A*3F
$GPRMC,173946,A,2339.608166,S,04631.813751,W,003.26,24.9,190723,17.8,W,A*3D
$GPRMC,173946,A,2339.607999,S,04631.813661,W,003.33,25.7,190723,17.8,W,A*33
$GPRMC,173946,A,2339.607834,S,04631.813580,W,003.33,25.7,190723,17.8,W,A*39
$GPRMC,173946,A,2339.607664,S,04631.813502,W,003.37,25.1,190723,17.8,W,A*3A
$GPRMC,173946,A,2339.607494,S,04631.813428,W,003.36,24.5,190723,17.8,W,A*3A
$GPRMC,173947,A,2339.607321,S,04631.813347,W,003.38,26.2,190723,17.8,W,A*37
$GPRMC,173947,A,2339.607152,S,04631.813267,W,003.34,26.6,190723,17.8,W,A*3A
$GPRMC,173947,A,2339.606989,S,04631.813193,W,003.20,26.7,190723,17.8,W,A*39
$GPRMC,173947,A,2339.606826,S,04631.813119,W,003.15,26.6,190723,17.8,W,A*38
$GPRMC,173947,A,2339.606667,S,04631.813044,W,003.09,26.8,190723,17.8,W,A*39
$GPRMC,173948,A,2339.606506,S,04631.812967,W,003.11,26.2,190723,17.8,W,A*38
$GPRMC,173948,A,2339.606355,S,04631.812892,W,003.00,26.8,190723,17.8,W,A*39
$GPRMC,173948,A,2339.606213,S,04631.812820,W,002.83,27.7,190723,17.8,W,A*37
$GPRMC,173948,A,2339.606072,S,04631.812747,W,002.75,27.4,190723,17.8,W,A*36
$GPRMC,173948,A,2339.605929,S,04631.812681,W,002.77,25.5,190723,17.8,W,A*38
$GPRMC,173949,A,2339.605783,S,04631.812612,W,002.84,24.7,190723,17.8,W,A*32
$GPRMC,173949,A,2339.605641,S,04631.812530,W,002.86,25.9,190723,17.8,W,A*33
$GPRMC,173949,A,2339.605498,S,04631.812459,W,002.83,25.2,190723,17.8,W,A*35
$GPRMC,173949,A,2339.605361,S,04631.812396,W,002.74,24.6,190723,17.8,W,A*3D
$GPRMC,173949,A,2339.605223,S,04631.812332,W,002.70,24.4,190723,17.8,W,A*32
$GPRMC,173950,A,2339.605084,S,04631.812262,W,002.75,25.5,190723,17.8,W,A*34
$GPRMC,173950,A,2339.604936,S,04631.812211,W,002.80,23.9,190723,17.8,W,A*31
$GPRMC,173950,A,2339.604794,S,04631.812166,W,002.68,22.5,190723,17.8,W,A*3F
$GPRMC,173950,A,2339.604668,S,04631.812119,W,002.41,23.4,190723,17.8,W,A*3E
$GPRMC,173950,A,2339.604546,S,04631.812069,W,002.30,25.6,190723,17.8,W,A*35
$GPRMC,173951,A,2339.604417,S,04631.812022,W,002.39,24.5,190723,17.8,W,A*35
$GPRMC,173951,A,2339.604285,S,04631.811973,W,002.51,22.7,190723,17.8,W,A*3C
$GPRMC,173951,A,2339.604159,S,04631.811917,W,002.51,24.7,190723,17.8,W,A*3A
$GPRMC,173951,A,2339.604041,S,04631.811865,W,002.39,25.3,190723,17.8,W,A*3D
$GPRMC,173951,A,2339.603929,S,04631.811812,W,002.26,26.5,190723,17.8,W,A*36
$GPRMC,173952,A,2339.603814,S,04631.811756,W,002.27,27.7,190723,17.8,W,A*37
$GPRMC,173952,A,2339.603699,S,04631.811698,W,002.32,28.7,190723,17.8,W,A*34
$GPRMC,173952,A,2339.603592,S,04631.811628,W,002.30,33.3,190723,17.8,W,A*3B
$GPRMC,173952,A,2339.603493,S,04631.811565,W,002.14,35.8,190723,17.8,W,A*3A
$GPRMC,173952,A,2339.603395,S,04631.811505,W,002.00,36.0,190723,17.8,W,A*33
$GPRMC,173953,A,2339.603302,S,04631.811440,W,001.95,38.5,190723,17.8,W,A*38
$GPRMC,173953,A,2339.603213,S,04631.811373,W,001.93,39.7,190723,17.8,W,A*3B
$GPRMC,173953,A,2339.603129,S,04631.811290,W,001.96,41.7,190723,17.8,W,A*37
$GPRMC,173953,A,2339.603045,S,04631.811203,W,001.98,42.7,190723,17.8,W,A*3B
$GPRMC,173953,A,2339.602963,S,04631.811119,W,001.98,45.3,190723,17.8,W,A*3C
$GPRMC,173954,A,2339.602883,S,04631.811024,W,001.98,47.7,190723,17.8,W,A*3D
$GPRMC,173954,A,2339.602810,S,04631.810922,W,002.00,51.6,190723,17.8,W,A*3D
$GPRMC,173954,A,2339.602747,S,04631.810818,W,002.00,58.8,190723,17.8,W,A*3F
$GPRMC,173954,A,2339.602685,S,04631.810719,W,001.95,61.8,190723,17.8,W,A*3B
$GPRMC,173954,A,2339.602629,S,04631.810617,W,001.92,62.9,190723,17.8,W,A*37
$GPRMC,173955,A,2339.602573,S,04631.810513,W,001.98,65.1,190723,17.8,W,A*38
$GPRMC,173955,A,2339.602528,S,04631.810401,W,002.00,68.8,190723,17.8,W,A*32
$GPRMC,173955,A,2339.602487,S,04631.810286,W,002.04,72.0,190723,17.8,W,A*38
$GPRMC,173955,A,2339.602450,S,04631.810170,W,002.04,73.9,190723,17.8,W,A*30
$GPRMC,173955,A,2339.602415,S,04631.810052,W,002.04,74.6,190723,17.8,W,A*38
$GPRMC,173956,A,2339.602389,S,04631.809932,W,002.03,78.3,190723,17.8,W,A*30
$GPRMC,173956,A,2339.602369,S,04631.809809,W,002.02,81.4,190723,17.8,W,A*37
$GPRMC,173956,A,2339.602352,S,04631.809691,W,001.95,82.9,190723,17.8,W,A*33
$GPRMC,173956,A,2339.602338,S,04631.809578,W,001.83,83.4,190723,17.8,W,A*30
$GPRMC,173956,A,2339.602329,S,04631.809471,W,001.71,85.1,190723,17.8,W,A*36
$GPRMC,173957,A,2339.602323,S,04631.809376,W,001.52,85.9,190723,17.8,W,A*34
$GPRMC,173957,A,2339.602313,S,04631.809297,W,001.29,83.7,190723,17.8,W,A*3D
$GPRMC,173957,A,2339.602298,S,04631.809219,W,001.22,78.3,190723,17.8,W,A*32
$GPRMC,173957,A,2339.602290,S,04631.809123,W,001.51,84.3,190723,17.8,W,A*37
$GPRMC,173957,A,2339.602292,S,04631.809016,W,001.77,91.9,190723,17.8,W,A*38
$GPRMC,173958,A,2339.602290,S,04631.808909,W,001.77,90.8,190723,17.8,W,A*33
$GPRMC,173958,A,2339.602281,S,04631.808805,W,001.72,85.9,190723,17.8,W,A*3E
$GPRMC,173958,A,2339.602276,S,04631.808696,W,001.78,86.4,190723,17.8,W,A*36
$GPRMC,173958,A,2339.602281,S,04631.808585,W,001.85,91.9,190723,17.8,W,A*36
$GPRMC,173958,A,2339.602286,S,04631.808471,W,001.90,93.7,190723,17.8,W,A*33
$GPRMC,173959,A,2339.602288,S,04631.808356,W,001.90,91.9,190723,17.8,W,A*32
$GPRMC,173959,A,2339.602292,S,04631.808242,W,001.86,91.9,190723,17.8,W,A*3A
$GPRMC,173959,A,2339.602296,S,04631.808129,W,001.85,92.3,190723,17.8,W,A*3A
$GPRMC,173959,A,2339.602304,S,04631.808022,W,001.82,94.3,190723,17.8,W,A*3B
$GPRMC,173959,A,2339.602312,S,04631.807913,W,001.83,94.8,190723,17.8,W,A*32
$GPRMC,174000,A,2339.602322,S,04631.807797,W,001.91,95.8,190723,17.8,W,A*33
$GPRMC,174000,A,2339.602342,S,04631.807676,W,002.04,99.8,190723,17.8,W,A*38
$GPRMC,174000,A,2339.602364,S,04631.807555,W,002.06,101.5,190723,17.8,W,A*01
$GPRMC,174000,A,2339.602381,S,04631.807437,W,001.96,99.6,190723,17.8,W,A*36
$GPRMC,174000,A,2339.602402,S,04631.807320,W,001.90,100.8,190723,17.8,W,A*02
$GPRMC,174001,A,2339.602429,S,04631.807202,W,001.98,103.4,190723,17.8,W,A*0C
$GPRMC,174001,A,2339.602457,S,04631.807082,W,002.02,104.6,190723,17.8,W,A*0A
$GPRMC,174001,A,2339.602484,S,04631.806962,W,002.02,103.8,190723,17.8,W,A*0B
$GPRMC,174001,A,2339.602519,S,04631.806844,W,002.04,107.1,190723,17.8,W,A*00
$GPRMC,174001,A,2339.602557,S,04631.806726,W,002.05,109.1,190723,17.8,W,A*0E
$GPRMC,174002,A,2339.602593,S,04631.806606,W,002.05,108.9,190723,17.8,W,A*0F
$GPRMC,174002,A,2339.602631,S,04631.806487,W,002.03,109.0,190723,17.8,W,A*01
$GPRMC,174002,A,2339.602670,S,04631.806359,W,002.10,109.6,190723,17.8,W,A*04
$GPRMC,174002,A,2339.602722,S,04631.806230,W,002.25,114.2,190723,17.8,W,A*02
$GPRMC,174002,A,2339.602781,S,04631.806105,W,002.29,117.9,190723,17.8,W,A*0A
$GPRMC,174003,A,2339.602830,S,04631.805986,W,002.14,116.0,190723,17.8,W,A*08
$GPRMC,174003,A,2339.602876,S,04631.805873,W,002.01,113.6,190723,17.8,W,A*06
$GPRMC,174003,A,2339.602929,S,04631.805759,W,001.97,116.7,190723,17.8,W,A*02
$GPRMC,174003,A,2339.602991,S,04631.805647,W,002.04,121.2,190723,17.8,W,A*07
$GPRMC,174003,A,2339.603051,S,04631.805538,W,002.02,121.6,190723,17.8,W,A*0A
$GPRMC,174004,A,2339.603110,S,04631.805435,W,001.94,121.9,190723,17.8,W,A*06
$GPRMC,174004,A,2339.603169,S,04631.805340,W,001.87,123.3,190723,17.8,W,A*07
$GPRMC,174004,A,2339.603225,S,04631.805252,W,001.78,124.1,190723,17.8,W,A*0B
$GPRMC,174004,A,2339.603281,S,04631.805168,W,001.71,124.8,190723,17.8,W,A*0F
$GPRMC,174004,A,2339.603340,S,04631.805083,W,001.73,126.9,190723,17.8,W,A*06
$GPRMC,174005,A,2339.603401,S,04631.804993,W,001.81,127.5,190723,17.8,W,A*0C
$GPRMC,174005,A,2339.603466,S,04631.804909,W,001.81,129.8,190723,17.8,W,A*0D
$GPRMC,174005,A,2339.603524,S,04631.804827,W,001.72,128.5,190723,17.8,W,A*07
$GPRMC,174005,A,2339.603583,S,04631.804747,W,001.68,128.2,190723,17.8,W,A*0F
$GPRMC,174005,A,2339.603648,S,04631.804671,W,001.71,131.8,190723,17.8,W,A*05
$GPRMC,174006,A,2339.603713,S,04631.804600,W,001.69,133.4,190723,17.8,W,A*08
$GPRMC,174006,A,2339.603776,S,04631.804525,W,001.70,131.5,190723,17.8,W,A*04
$GPRMC,174006,A,2339.603841,S,04631.804452,W,001.69,132.7,190723,17.8,W,A*07
$GPRMC,174006,A,2339.603906,S,04631.804382,W,001.66,134.9,190723,17.8,W,A*08
$GPRMC,174006,A,2339.603971,S,04631.804314,W,001.65,135.1,190723,17.8,W,A*0D
$GPRMC,174007,A,2339.604042,S,04631.804245,W,001.70,137.2,190723,17.8,W,A*02
$GPRMC,174007,A,2339.604116,S,04631.804177,W,001.77,139.3,190723,17.8,W,A*08
$GPRMC,174007,A,2339.604191,S,04631.804111,W,001.75,140.6,190723,17.8,W,A*0E
$GPRMC,174007,A,2339.604263,S,04631.804046,W,001.70,140.2,190723,17.8,W,A*02
$GPRMC,174007,A,2339.604337,S,04631.803983,W,001.69,141.2,190723,17.8,W,A*0C
$GPRMC,174008,A,2339.604414,S,04631.803921,W,001.72,142.6,190723,17.8,W,A*00
$GPRMC,174008,A,2339.604494,S,04631.803859,W,001.76,143.9,190723,17.8,W,A*0C
$GPRMC,174008,A,2339.604575,S,04631.803798,W,001.80,144.9,190723,17.8,W,A*0E
$GPRMC,174008,A,2339.604661,S,04631.803737,W,001.85,146.3,190723,17.8,W,A*00
$GPRMC,174008,A,2339.604752,S,04631.803680,W,001.91,149.0,190723,17.8,W,A*05
$GPRMC,174009,A,2339.604839,S,04631.803621,W,001.87,148.5,190723,17.8,W,A*0E
$GPRMC,174009,A,2339.604925,S,04631.803564,W,001.82,148.3,190723,17.8,W,A*03
$GPRMC,174009,A,2339.605017,S,04631.803510,W,001.85,150.5,190723,17.8,W,A*01
$GPRMC,174009,A,2339.605109,S,04631.803453,W,001.90,150.4,190723,17.8,W,A*0C
$GPRMC,174009,A,2339.605199,S,04631.803400,W,001.87,150.8,190723,17.8,W,A*09
$GPRMC,174010,A,2339.605290,S,04631.803350,W,001.83,152.8,190723,17.8,W,A*0F
$GPRMC,174010,A,2339.605384,S,04631.803307,W,001.81,156.3,190723,17.8,W,A*04
$GPRMC,174010,A,2339.605469,S,04631.803270,W,001.65,158.6,190723,17.8,W,A*00
$GPRMC,174010,A,2339.605540,S,04631.803237,W,001.36,157.9,190723,17.8,W,A*0F
$GPRMC,174010,A,2339.605594,S,04631.803203,W,001.08,150.2,190723,17.8,W,A*00
$GPRMC,174011,A,2339.605649,S,04631.803177,W,000.99,153.5,190723,17.8,W,A*0F
$GPRMC,174011,A,2339.605705,S,04631.803157,W,000.99,160.3,190723,17.8,W,A*02
$GPRMC,174011,A,2339.605754,S,04631.803140,W,000.90,162.0,190723,17.8,W,A*08
$GPRMC,174011,A,2339.605787,S,04631.803116,W,000.71,149.0,190723,17.8,W,A*03
$GPRMC,174011,A,2339.605818,S,04631.803099,W,000.60,147.8,190723,17.8,W,A*0A
$GPRMC,174012,A,2339.605845,S,04631.803094,W,000.46,163.6,190723,17.8,W,A*00
$GPRMC,174012,A,2339.605861,S,04631.803095,W,000.28,185.4,190723,17.8,W,A*05
$GPRMC,174012,A,2339.605853,S,04631.803095,W,000.17,344.5,190723,17.8,W,A*06
$GPRMC,174012,A,2339.605835,S,04631.803089,W,000.41,12.0,190723,17.8,W,A*3D
$GPRMC,174012,A,2339.605837,S,04631.803093,W,000.11,12.0,190723,17.8,W,A*31
$GPRMC,174013,A,2339.605845,S,04631.803101,W,000.18,212.4,190723,17.8,W,A*00
$GPRMC,174013,A,2339.605845,S,04631.803103,W,000.12,209.5,190723,17.8,W,A*03
$GPRMC,174013,A,2339.605839,S,04631.803101,W,000.07,209.5,190723,17.8,W,A*0E
$GPRMC,174013,A,2339.605835,S,04631.803101,W,000.08,209.5,190723,17.8,W,A*0D
$GPRMC,174013,A,2339.605838,S,04631.803105,W,000.08,209.5,190723,17.8,W,A*04
$GPRMC,174014,A,2339.605838,S,04631.803106,W,000.07,209.5,190723,17.8,W,A*0F
$GPRMC,174014,A,2339.605835,S,04631.803105,W,000.07,209.5,190723,17.8,W,A*01
$GPRMC,174014,A,2339.605833,S,04631.803105,W,000.07,209.5,190723,17.8,W,A*07
$GPRMC,174014,A,2339.605834,S,04631.803106,W,000.06,209.5,190723,17.8,W,A*02
$GPRMC,174014,A,2339.605833,S,04631.803106,W,000.09,209.5,190723,17.8,W,A*0A
$GPRMC,174015,A,2339.605831,S,04631.803105,W,000.09,209.5,190723,17.8,W,A*0A
$GPRMC,174015,A,2339.605830,S,04631.803105,W,000.10,209.5,190723,17.8,W,A*03
$GPRMC,174015,A,2339.605831,S,04631.803106,W,000.10,209.5,190723,17.8,W,A*01
$GPRMC,174015,A,2339.605830,S,04631.803106,W,000.06,209.5,190723,17.8,W,A*07
$GPRMC,174015,A,2339.605830,S,04631.803105,W,000.07,209.5,190723,17.8,W,A*05
$GPRMC,174016,A,2339.605830,S,04631.803106,W,000.07,209.5,190723,17.8,W,A*05
$GPRMC,174016,A,2339.605830,S,04631.803106,W,000.08,209.5,190723,17.8,W,A*0A
$GPRMC,174016,A,2339.605830,S,04631.803106,W,000.07,209.5,190723,17.8,W,A*05
$GPRMC,174016,A,2339.605830,S,04631.803105,W,000.07,209.5,190723,17.8,W,A*06
$GPRMC,174016,A,2339.605830,S,04631.803105,W,000.10,209.5,190723,17.8,W,A*00
$GPRMC,174017,A,2339.605830,S,04631.803105,W,000.10,209.5,190723,17.8,W,A*01
$GPRMC,174017,A,2339.605830,S,04631.803104,W,000.10,209.5,190723,17.8,W,A*00
$GPRMC,174017,A,2339.605830,S,04631.803104,W,000.07,209.5,190723,17.8,W,A*06
$GPRMC,174017,A,2339.605831,S,04631.803101,W,000.06,209.5,190723,17.8,W,A*03
$GPRMC,174017,A,2339.605833,S,04631.803099,W,000.09,209.5,190723,17.8,W,A*0E
$GPRMC,174018,A,2339.605833,S,04631.803098,W,000.06,209.5,190723,17.8,W,A*0F
$GPRMC,174018,A,2339.605830,S,04631.803099,W,000.10,209.5,190723,17.8,W,A*0A
$GPRMC,174018,A,2339.605822,S,04631.803096,W,000.16,2.5,190723,17.8,W,A*09
$GPRMC,174018,A,2339.605817,S,04631.803100,W,000.16,337.0,190723,17.8,W,A*01
$GPRMC,174018,A,2339.605808,S,04631.803104,W,000.21,333.4,190723,17.8,W,A*0F
$GPRMC,174019,A,2339.605793,S,04631.803112,W,000.31,330.8,190723,17.8,W,A*0A
$GPRMC,174019,A,2339.605770,S,04631.803131,W,000.55,324.3,190723,17.8,W,A*0A
$GPRMC,174019,A,2339.605730,S,04631.803148,W,000.82,334.4,190723,17.8,W,A*0C
$GPRMC,174019,A,2339.605686,S,04631.803177,W,001.01,330.8,190723,17.8,W,A*0E
$GPRMC,174019,A,2339.605633,S,04631.803199,W,001.08,337.3,190723,17.8,W,A*05
$GPRMC,174020,A,2339.605584,S,04631.803224,W,001.03,337.0,190723,17.8,W,A*0D
$GPRMC,174020,A,2339.605534,S,04631.803246,W,000.96,338.4,190723,17.8,W,A*04
$GPRMC,174020,A,2339.605491,S,04631.803270,W,000.85,333.7,190723,17.8,W,A*05
$GPRMC,174020,A,2339.605447,S,04631.803297,W,000.87,329.4,190723,17.8,W,A*0D
$GPRMC,174020,A,2339.605390,S,04631.803324,W,001.08,334.0,190723,17.8,W,A*07
$GPRMC,174021,A,2339.605322,S,04631.803352,W,001.31,338.2,190723,17.8,W,A*0A
$GPRMC,174021,A,2339.605249,S,04631.803387,W,001.46,338.0,190723,17.8,W,A*0C
$GPRMC,174021,A,2339.605180,S,04631.803424,W,001.43,334.8,190723,17.8,W,A*05
$GPRMC,174021,A,2339.605114,S,04631.803458,W,001.34,334.6,190723,17.8,W,A*0D
$GPRMC,174021,A,2339.605050,S,04631.803489,W,001.23,335.2,190723,17.8,W,A*03
$GPRMC,174022,A,2339.605005,S,04631.803520,W,000.95,328.4,190723,17.8,W,A*04
$GPRMC,174022,A,2339.604968,S,04631.803548,W,000.74,323.0,190723,17.8,W,A*09
$GPRMC,174022,A,2339.604930,S,04631.803577,W,000.76,320.9,190723,17.8,W,A*00
$GPRMC,174022,A,2339.604867,S,04631.803608,W,001.19,332.6,190723,17.8,W,A*0C
$GPRMC,174022,A,2339.604790,S,04631.803643,W,001.54,336.9,190723,17.8,W,A*06
$GPRMC,174023,A,2339.604718,S,04631.803689,W,001.62,331.8,190723,17.8,W,A*02
$GPRMC,174023,A,2339.604650,S,04631.803738,W,001.56,327.4,190723,17.8,W,A*08
$GPRMC,174023,A,2339.604581,S,04631.803784,W,001.48,327.6,190723,17.8,W,A*0D
$GPRMC,174023,A,2339.604514,S,04631.803825,W,001.36,330.0,190723,17.8,W,A*0C
$GPRMC,174023,A,2339.604458,S,04631.803868,W,001.22,325.9,190723,17.8,W,A*04
$GPRMC,174024,A,2339.604404,S,04631.803912,W,001.19,322.8,190723,17.8,W,A*08
$GPRMC,174024,A,2339.604347,S,04631.803960,W,001.27,321.4,190723,17.8,W,A*0F
$GPRMC,174024,A,2339.604282,S,04631.804012,W,001.44,322.5,190723,17.8,W,A*0B
$GPRMC,174024,A,2339.604210,S,04631.804064,W,001.58,325.5,190723,17.8,W,A*0B
$GPRMC,174024,A,2339.604146,S,04631.804123,W,001.56,321.5,190723,17.8,W,A*03
$GPRMC,174025,A,2339.604084,S,04631.804183,W,001.50,318.4,190723,17.8,W,A*0A
$GPRMC,174025,A,2339.604021,S,04631.804242,W,001.51,318.4,190723,17.8,W,A*0A
$GPRMC,174025,A,2339.603956,S,04631.804308,W,001.57,316.6,190723,17.8,W,A*01
$GPRMC,174025,A,2339.603890,S,04631.804374,W,001.62,317.2,190723,17.8,W,A*02
$GPRMC,174025,A,2339.603826,S,04631.804439,W,001.58,316.5,190723,17.8,W,A*0E
$GPRMC,174026,A,2339.603769,S,04631.804506,W,001.51,313.2,190723,17.8,W,A*0F
$GPRMC,174026,A,2339.603712,S,04631.804574,W,001.49,312.0,190723,17.8,W,A*0C
$GPRMC,174026,A,2339.603653,S,04631.804640,W,001.51,313.2,190723,17.8,W,A*06
$GPRMC,174026,A,2339.603598,S,04631.804707,W,001.47,312.3,190723,17.8,W,A*07
$GPRMC,174026,A,2339.603541,S,04631.804775,W,001.51,312.2,190723,17.8,W,A*00
$GPRMC,174027,A,2339.603484,S,04631.804847,W,001.57,311.1,190723,17.8,W,A*01
$GPRMC,174027,A,2339.603424,S,04631.804923,W,001.66,310.6,190723,17.8,W,A*0C
$GPRMC,174027,A,2339.603363,S,04631.805005,W,001.76,309.4,190723,17.8,W,A*0F
$GPRMC,174027,A,2339.603300,S,04631.805090,W,001.82,308.6,190723,17.8,W,A*0E
$GPRMC,174027,A,2339.603240,S,04631.805175,W,001.81,307.5,190723,17.8,W,A*0E
$GPRMC,174028,A,2339.603183,S,04631.805259,W,001.72,306.3,190723,17.8,W,A*0B
$GPRMC,174028,A,2339.603129,S,04631.805339,W,001.62,306.2,190723,17.8,W,A*0C
$GPRMC,174028,A,2339.603084,S,04631.805417,W,001.50,302.9,190723,17.8,W,A*0F
$GPRMC,174028,A,2339.603043,S,04631.805486,W,001.39,301.9,190723,17.8,W,A*00
$GPRMC,174028,A,2339.603004,S,04631.805552,W,001.31,302.3,190723,17.8,W,A*0A
$GPRMC,174029,A,2339.602968,S,04631.805614,W,001.23,302.1,190723,17.8,W,A*09
$GPRMC,174029,A,2339.602937,S,04631.805673,W,001.15,300.7,190723,17.8,W,A*03
$GPRMC,174029,A,2339.602911,S,04631.805727,W,001.05,298.0,190723,17.8,W,A*01
$GPRMC,174029,A,2339.602889,S,04631.805781,W,001.00,294.2,190723,17.8,W,A*06
$GPRMC,174029,A,2339.602860,S,04631.805841,W,001.13,297.4,190723,17.8,W,A*05
$GPRMC,174030,A,2339.602823,S,04631.805911,W,001.37,300.9,190723,17.8,W,A*0A
$GPRMC,174030,A,2339.602785,S,04631.805985,W,001.49,300.6,190723,17.8,W,A*02
$GPRMC,174030,A,2339.602755,S,04631.806060,W,001.45,294.8,190723,17.8,W,A*00
$GPRMC,174030,A,2339.602726,S,04631.806134,W,001.42,292.3,190723,17.8,W,A*0E
$GPRMC,174030,A,2339.602691,S,04631.806214,W,001.44,294.3,190723,17.8,W,A*02
$GPRMC,174031,A,2339.602656,S,04631.806294,W,001.45,295.1,190723,17.8,W,A*02
$GPRMC,174031,A,2339.602624,S,04631.806377,W,001.48,293.3,190723,17.8,W,A*02
$GPRMC,174031,A,2339.602592,S,04631.806466,W,001.54,291.4,190723,17.8,W,A*03
$GPRMC,174031,A,2339.602563,S,04631.806556,W,001.56,288.9,190723,17.8,W,A*08
$GPRMC,174031,A,2339.602530,S,04631.806648,W,001.61,290.2,190723,17.8,W,A*04
$GPRMC,174032,A,2339.602502,S,04631.806735,W,001.55,288.7,190723,17.8,W,A*06
$GPRMC,174032,A,2339.602479,S,04631.806816,W,001.37,288.0,190723,17.8,W,A*06
$GPRMC,174032,A,2339.602462,S,04631.806888,W,001.16,286.4,190723,17.8,W,A*02
$GPRMC,174032,A,2339.602448,S,04631.806950,W,000.98,285.4,190723,17.8,W,A*0A
$GPRMC,174032,A,2339.602438,S,04631.807005,W,000.83,284.2,190723,17.8,W,A*08
$GPRMC,174033,A,2339.602434,S,04631.807057,W,000.75,278.4,190723,17.8,W,A*0E
$GPRMC,174033,A,2339.602424,S,04631.807109,W,000.81,282.6,190723,17.8,W,A*09
$GPRMC,174033,A,2339.602412,S,04631.807163,W,000.90,284.5,190723,17.8,W,A*05
$GPRMC,174033,A,2339.602403,S,04631.807219,W,000.95,282.3,190723,17.8,W,A*0E
$GPRMC,174033,A,2339.602393,S,04631.807277,W,000.98,282.9,190723,17.8,W,A*0F
$GPRMC,174034,A,2339.602383,S,04631.807332,W,000.94,283.5,190723,17.8,W,A*08
$GPRMC,174034,A,2339.602374,S,04631.807382,W,000.88,282.2,190723,17.8,W,A*00
$GPRMC,174034,A,2339.602366,S,04631.807432,W,000.86,280.1,190723,17.8,W,A*00
$GPRMC,174034,A,2339.602356,S,04631.807487,W,000.90,281.6,190723,17.8,W,A*0C
$GPRMC,174034,A,2339.602346,S,04631.807546,W,000.97,281.8,190723,17.8,W,A*08
$GPRMC,174035,A,2339.602338,S,04631.807604,W,000.97,279.9,190723,17.8,W,A*03
$GPRMC,174035,A,2339.602331,S,04631.807661,W,000.97,277.7,190723,17.8,W,A*09
$GPRMC,174035,A,2339.602323,S,04631.807723,W,001.02,277.7,190723,17.8,W,A*00
$GPRMC,174035,A,2339.602314,S,04631.807789,W,001.11,278.4,190723,17.8,W,A*0A
$GPRMC,174035,A,2339.602304,S,04631.807856,W,001.15,278.7,190723,17.8,W,A*01
$GPRMC,174036,A,2339.602294,S,04631.807912,W,000.99,279.1,190723,17.8,W,A*09
$GPRMC,174036,A,2339.602293,S,04631.807960,W,000.79,271.8,190723,17.8,W,A*04
$GPRMC,174036,A,2339.602295,S,04631.808010,W,000.76,266.7,190723,17.8,W,A*05
$GPRMC,174036,A,2339.602289,S,04631.808066,W,000.86,274.7,190723,17.8,W,A*05
$GPRMC,174036,A,2339.602282,S,04631.808123,W,000.93,278.2,190723,17.8,W,A*03
$GPRMC,174037,A,2339.602281,S,04631.808177,W,000.91,273.1,190723,17.8,W,A*0A
$GPRMC,174037,A,2339.602280,S,04631.808230,W,000.90,270.5,190723,17.8,W,A*0D
$GPRMC,174037,A,2339.602278,S,04631.808286,W,000.92,271.1,190723,17.8,W,A*00
$GPRMC,174037,A,2339.602277,S,04631.808347,W,001.00,270.9,190723,17.8,W,A*00
$GPRMC,174037,A,2339.602275,S,04631.808414,W,001.11,271.5,190723,17.8,W,A*0E
$GPRMC,174038,A,2339.602271,S,04631.808487,W,001.20,272.7,190723,17.8,W,A*0C
$GPRMC,174038,A,2339.602269,S,04631.808563,W,001.28,272.3,190723,17.8,W,A*02
$GPRMC,174038,A,2339.602265,S,04631.808641,W,001.32,272.8,190723,17.8,W,A*0D
$GPRMC,174038,A,2339.602261,S,04631.808720,W,001.31,273.6,190723,17.8,W,A*03
$GPRMC,174038,A,2339.602260,S,04631.808792,W,001.21,271.5,190723,17.8,W,A*0B
$GPRMC,174039,A,2339.602263,S,04631.808856,W,001.05,267.0,190723,17.8,W,A*0A
$GPRMC,174039,A,2339.602267,S,04631.808912,W,000.89,264.3,190723,17.8,W,A*0A
$GPRMC,174039,A,2339.602271,S,04631.808960,W,000.75,263.2,190723,17.8,W,A*0D
$GPRMC,174039,A,2339.602277,S,04631.809012,W,000.78,261.7,190723,17.8,W,A*0C
$GPRMC,174039,A,2339.602278,S,04631.809074,W,000.95,268.1,190723,17.8,W,A*0F
$GPRMC,174040,A,2339.602276,S,04631.809138,W,001.06,273.3,190723,17.8,W,A*05
$GPRMC,174040,A,2339.602280,S,04631.809191,W,000.95,267.5,190723,17.8,W,A*07
$GPRMC,174040,A,2339.602288,S,04631.809240,W,000.82,260.4,190723,17.8,W,A*00
$GPRMC,174040,A,2339.602290,S,04631.809289,W,000.78,265.3,190723,17.8,W,A*0B
$GPRMC,174040,A,2339.602292,S,04631.809333,W,000.71,266.9,190723,17.8,W,A*09
$GPRMC,174041,A,2339.602297,S,04631.809369,W,000.59,262.4,190723,17.8,W,A*01
$GPRMC,174041,A,2339.602303,S,04631.809402,W,000.50,258.3,190723,17.8,W,A*00
$GPRMC,174041,A,2339.602308,S,04631.809437,W,000.52,259.4,190723,17.8,W,A*09
$GPRMC,174041,A,2339.602311,S,04631.809477,W,000.63,265.2,190723,17.8,W,A*0E
$GPRMC,174041,A,2339.602314,S,04631.809526,W,000.78,266.3,190723,17.8,W,A*06
$GPRMC,174042,A,2339.602318,S,04631.809577,W,000.85,265.4,190723,17.8,W,A*0B
$GPRMC,174042,A,2339.602324,S,04631.809631,W,000.89,263.5,190723,17.8,W,A*0E
$GPRMC,174042,A,2339.602331,S,04631.809685,W,000.91,261.7,190723,17.8,W,A*0C
$GPRMC,174042,A,2339.602339,S,04631.809742,W,000.94,260.5,190723,17.8,W,A*08
$GPRMC,174042,A,2339.602351,S,04631.809804,W,001.00,258.1,190723,17.8,W,A*08
$GPRMC,174043,A,2339.602363,S,04631.809868,W,001.11,257.7,190723,17.8,W,A*0B
$GPRMC,174043,A,2339.602374,S,04631.809945,W,001.25,259.7,190723,17.8,W,A*0A
$GPRMC,174043,A,2339.602386,S,04631.810030,W,001.38,259.1,190723,17.8,W,A*0E
$GPRMC,174043,A,2339.602405,S,04631.810111,W,001.41,256.5,190723,17.8,W,A*05
$GPRMC,174043,A,2339.602421,S,04631.810194,W,001.40,256.7,190723,17.8,W,A*0D
$GPRMC,174044,A,2339.602441,S,04631.810268,W,001.28,254.7,190723,17.8,W,A*00
$GPRMC,174044,A,2339.602459,S,04631.810336,W,001.12,252.2,190723,17.8,W,A*09
$GPRMC,174044,A,2339.602472,S,04631.810390,W,000.92,254.3,190723,17.8,W,A*02
$GPRMC,174044,A,2339.602485,S,04631.810438,W,000.75,251.3,190723,17.8,W,A*03
$GPRMC,174044,A,2339.602503,S,04631.810483,W,000.73,245.0,190723,17.8,W,A*0C
$GPRMC,174045,A,2339.602521,S,04631.810537,W,000.85,248.1,190723,17.8,W,A*06
$GPRMC,174045,A,2339.602534,S,04631.810599,W,000.98,255.6,190723,17.8,W,A*01
$GPRMC,174045,A,2339.602557,S,04631.810640,W,000.89,246.1,190723,17.8,W,A*06
$GPRMC,174045,A,2339.602577,S,04631.810689,W,000.82,244.4,190723,17.8,W,A*0D
$GPRMC,174045,A,2339.602590,S,04631.810737,W,000.74,250.6,190723,17.8,W,A*0E
$GPRMC,174046,A,2339.602601,S,04631.810781,W,000.63,256.8,190723,17.8,W,A*05
$GPRMC,174046,A,2339.602611,S,04631.810812,W,000.39,250.1,190723,17.8,W,A*01
$GPRMC,174046,A,2339.602617,S,04631.810834,W,000.22,235.6,190723,17.8,W,A*0D
$GPRMC,174046,A,2339.602618,S,04631.810851,W,000.09,235.6,190723,17.8,W,A*08
$GPRMC,174046,A,2339.602616,S,04631.810861,W,000.09,235.6,190723,17.8,W,A*05
$GPRMC,174047,A,2339.602615,S,04631.810863,W,000.17,75.4,190723,17.8,W,A*3E
$GPRMC,174047,A,2339.602612,S,04631.810866,W,000.17,76.5,190723,17.8,W,A*3E
$GPRMC,174047,A,2339.602608,S,04631.810869,W,000.15,64.1,190723,17.8,W,A*3F
$GPRMC,174047,A,2339.602605,S,04631.810872,W,000.13,64.5,190723,17.8,W,A*3A
$GPRMC,174047,A,2339.602602,S,04631.810874,W,000.14,72.6,190723,17.8,W,A*38
$GPRMC,174048,A,2339.602600,S,04631.810882,W,000.13,72.6,190723,17.8,W,A*3B
$GPRMC,174048,A,2339.602598,S,04631.810892,W,000.10,72.6,190723,17.8,W,A*3B
$GPRMC,174048,A,2339.602597,S,04631.810901,W,000.11,72.6,190723,17.8,W,A*3E
$GPRMC,174048,A,2339.602597,S,04631.810910,W,000.09,72.6,190723,17.8,W,A*37
$GPRMC,174048,A,2339.602597,S,04631.810921,W,000.08,72.6,190723,17.8,W,A*34
$GPRMC,174049,A,2339.602596,S,04631.810931,W,000.08,72.6,190723,17.8,W,A*35
$GPRMC,174049,A,2339.602597,S,04631.810940,W,000.07,72.6,190723,17.8,W,A*3D
$GPRMC,174049,A,2339.602597,S,04631.810948,W,000.07,72.6,190723,17.8,W,A*35
$GPRMC,174049,A,2339.602597,S,04631.810955,W,000.07,72.6,190723,17.8,W,A*39
$GPRMC,174049,A,2339.602597,S,04631.810962,W,000.08,72.6,190723,17.8,W,A*32
$GPRMC,174050,A,2339.602596,S,04631.810969,W,000.07,72.6,190723,17.8,W,A*3F
$GPRMC,174050,A,2339.602596,S,04631.810975,W,000.06,72.6,190723,17.8,W,A*33
$GPRMC,174050,A,2339.602597,S,04631.810981,W,000.08,72.6,190723,17.8,W,A*37
$GPRMC,174050,A,2339.602598,S,04631.810987,W,000.09,72.6,190723,17.8,W,A*3F
$GPRMC,174050,A,2339.602598,S,04631.810992,W,000.11,72.6,190723,17.8,W,A*32
$GPRMC,174051,A,2339.602598,S,04631.810995,W,000.12,72.6,190723,17.8,W,A*37
$GPRMC,174051,A,2339.602598,S,04631.810999,W,000.10,72.6,190723,17.8,W,A*39
$GPRMC,174051,A,2339.602598,S,04631.811002,W,000.09,72.6,190723,17.8,W,A*3B
$GPRMC,174051,A,2339.602598,S,04631.811005,W,000.10,72.6,190723,17.8,W,A*34
$GPRMC,174051,A,2339.602596,S,04631.811008,W,000.08,72.6,190723,17.8,W,A*3E
$GPRMC,174052,A,2339.602595,S,04631.811013,W,000.10,72.6,190723,17.8,W,A*3D
$GPRMC,174052,A,2339.602593,S,04631.811016,W,000.09,72.6,190723,17.8,W,A*36
$GPRMC,174052,A,2339.602593,S,04631.811020,W,000.09,72.6,190723,17.8,W,A*33
$GPRMC,174052,A,2339.602591,S,04631.811022,W,000.10,72.6,190723,17.8,W,A*3B
$GPRMC,174052,A,2339.602589,S,04631.811023,W,000.11,72.6,190723,17.8,W,A*32
$GPRMC,174053,A,2339.602586,S,04631.811025,W,000.12,72.6,190723,17.8,W,A*39
$GPRMC,174053,A,2339.602579,S,04631.811026,W,000.15,72.6,190723,17.8,W,A*3D
$GPRMC,174053,A,2339.602567,S,04631.811024,W,000.23,32.4,190723,17.8,W,A*33
$GPRMC,174053,A,2339.602545,S,04631.811017,W,000.41,25.8,190723,17.8,W,A*3D
$GPRMC,174053,A,2339.602515,S,04631.811011,W,000.58,19.6,190723,17.8,W,A*37
$GPRMC,174054,A,2339.602477,S,04631.811004,W,000.73,15.0,190723,17.8,W,A*32
$GPRMC,174054,A,2339.602430,S,04631.810994,W,000.90,13.1,190723,17.8,W,A*3A
$GPRMC,174054,A,2339.602375,S,04631.810980,W,001.04,13.5,190723,17.8,W,A*31
$GPRMC,174054,A,2339.602321,S,04631.810962,W,001.09,12.3,190723,17.8,W,A*36
$GPRMC,174054,A,2339.602271,S,04631.810945,W,001.04,11.7,190723,17.8,W,A*3D
$GPRMC,174055,A,2339.602220,S,04631.810925,W,000.96,12.8,190723,17.8,W,A*38
$GPRMC,174055,A,2339.602174,S,04631.810912,W,000.86,11.5,190723,17.8,W,A*31
$GPRMC,174055,A,2339.602132,S,04631.810897,W,000.79,12.3,190723,17.8,W,A*3A
$GPRMC,174055,A,2339.602093,S,04631.810880,W,000.73,12.3,190723,17.8,W,A*3C
$GPRMC,174055,A,2339.602053,S,04631.810862,W,000.72,11.2,190723,17.8,W,A*3F
$GPRMC,174056,A,2339.602016,S,04631.810841,W,000.70,11.2,190723,17.8,W,A*3E
$GPRMC,174056,A,2339.601980,S,04631.810824,W,000.70,12.1,190723,17.8,W,A*38
$GPRMC,174056,A,2339.601947,S,04631.810804,W,000.66,13.0,190723,17.8,W,A*36
$GPRMC,174056,A,2339.601916,S,04631.810790,W,000.63,13.1,190723,17.8,W,A*34
$GPRMC,174056,A,2339.601889,S,04631.810776,W,000.55,14.2,190723,17.8,W,A*3A
$GPRMC,174057,A,2339.601865,S,04631.810762,W,000.50,15.9,190723,17.8,W,A*33
$GPRMC,174057,A,2339.601842,S,04631.810748,W,000.46,16.4,190723,17.8,W,A*37
$GPRMC,174057,A,2339.601821,S,04631.810735,W,000.43,13.1,190723,17.8,W,A*3D
$GPRMC,174057,A,2339.601802,S,04631.810726,W,000.41,12.9,190723,17.8,W,A*35
$GPRMC,174057,A,2339.601780,S,04631.810715,W,000.44,14.4,190723,17.8,W,A*3E
$GPRMC,174058,A,2339.601756,S,04631.810708,W,000.49,13.4,190723,17.8,W,A*3C
$GPRMC,174058,A,2339.601729,S,04631.810703,W,000.53,11.1,190723,17.8,W,A*33
$GPRMC,174058,A,2339.601703,S,04631.810694,W,000.54,12.8,190723,17.8,W,A*39
$GPRMC,174058,A,2339.601677,S,04631.810688,W,000.53,14.2,190723,17.8,W,A*3D
$GPRMC,174058,A,2339.601655,S,04631.810683,W,000.47,15.4,190723,17.8,W,A*34
$GPRMC,174059,A,2339.601643,S,04631.810683,W,000.28,14.9,190723,17.8,W,A*37
$GPRMC,174059,A,2339.601641,S,04631.810682,W,000.12,14.9,190723,17.8,W,A*3D
$GPRMC,174059,A,2339.601646,S,04631.810683,W,000.16,177.3,190723,17.8,W,A*01
$GPRMC,174059,A,2339.601646,S,04631.810683,W,000.12,177.3,190723,17.8,W,A*05
$GPRMC,174059,A,2339.601646,S,04631.810686,W,000.10,177.3,190723,17.8,W,A*02
$GPRMC,174100,A,2339.601647,S,04631.810685,W,000.12,177.3,190723,17.8,W,A*0F
$GPRMC,174100,A,2339.601649,S,04631.810684,W,000.12,177.3,190723,17.8,W,A*00
$GPRMC,174100,A,2339.601649,S,04631.810687,W,000.07,177.3,190723,17.8,W,A*07
$GPRMC,174100,A,2339.601649,S,04631.810687,W,000.07,177.3,190723,17.8,W,A*07
$GPRMC,174100,A,2339.601649,S,04631.810688,W,000.06,177.3,190723,17.8,W,A*09
$GPRMC,174101,A,2339.601650,S,04631.810689,W,000.07,177.3,190723,17.8,W,A*00
$GPRMC,174101,A,2339.601650,S,04631.810690,W,000.07,177.3,190723,17.8,W,A*08
$GPRMC,174108,A,2339.602297,S,04631.811114,W,000.10,62.3,190723,17.8,W,A*34
$GPRMC,174109,A,2339.602296,S,04631.811114,W,000.09,62.3,190723,17.8,W,A*3C
$GPRMC,174109,A,2339.602295,S,04631.811113,W,000.10,62.3,190723,17.8,W,A*30
$GPRMC,174109,A,2339.602295,S,04631.811113,W,000.11,62.3,190723,17.8,W,A*31
$GPRMC,174109,A,2339.602294,S,04631.811112,W,000.10,62.3,190723,17.8,W,A*30
$GPRMC,174109,A,2339.602294,S,04631.811112,W,000.10,62.3,190723,17.8,W,A*30
$GPRMC,174110,A,2339.602294,S,04631.811112,W,000.09,62.3,190723,17.8,W,A*30
$GPRMC,174110,A,2339.602294,S,04631.811112,W,000.11,62.3,190723,17.8,W,A*39
$GPRMC,174110,A,2339.602293,S,04631.811111,W,000.10,62.3,190723,17.8,W,A*3C
$GPRMC,174110,A,2339.602293,S,04631.811112,W,000.10,62.3,190723,17.8,W,A*3F
$GPRMC,174110,A,2339.602293,S,04631.811112,W,000.09,62.3,190723,17.8,W,A*37
$GPRMC,174111,A,2339.602293,S,04631.811111,W,000.08,62.3,190723,17.8,W,A*34
$GPRMC,174111,A,2339.602293,S,04631.811110,W,000.06,62.3,190723,17.8,W,A*3B
$GPRMC,174111,A,2339.602293,S,04631.811108,W,000.08,62.3,190723,17.8,W,A*3C
$GPRMC,174111,A,2339.602293,S,04631.811108,W,000.08,62.3,190723,17.8,W,A*3C
$GPRMC,174111,A,2339.602292,S,04631.811107,W,000.09,62.3,190723,17.8,W,A*33
$GPRMC,174112,A,2339.602291,S,04631.811106,W,000.09,62.3,190723,17.8,W,A*32
$GPRMC,174112,A,2339.602290,S,04631.811105,W,000.08,62.3,190723,17.8,W,A*31
$GPRMC,174112,A,2339.602292,S,04631.811106,W,000.10,62.3,190723,17.8,W,A*39
$GPRMC,174112,A,2339.602296,S,04631.811109,W,000.11,62.3,190723,17.8,W,A*33
$GPRMC,174112,A,2339.602310,S,04631.811116,W,000.26,202.6,190723,17.8,W,A*07
$GPRMC,174113,A,2339.602329,S,04631.811123,W,000.38,198.7,190723,17.8,W,A*04
$GPRMC,174113,A,2339.602353,S,04631.811135,W,000.51,201.8,190723,17.8,W,A*0D
$GPRMC,174113,A,2339.602379,S,04631.811154,W,000.59,209.5,190723,17.8,W,A*0F
$GPRMC,174113,A,2339.602410,S,04631.811169,W,000.65,207.9,190723,17.8,W,A*04
$GPRMC,174113,A,2339.602440,S,04631.811186,W,000.64,207.6,190723,17.8,W,A*0E
$GPRMC,174114,A,2339.602475,S,04631.811200,W,000.69,206.9,190723,17.8,W,A*01
$GPRMC,174114,A,2339.602513,S,04631.811220,W,000.75,207.8,190723,17.8,W,A*0F
$GPRMC,174114,A,2339.602551,S,04631.811243,W,000.79,209.3,190723,17.8,W,A*05
$GPRMC,174114,A,2339.602595,S,04631.811268,W,000.88,207.2,190723,17.8,W,A*05
$GPRMC,174114,A,2339.602646,S,04631.811292,W,000.99,205.6,190723,17.8,W,A*0B
$GPRMC,174115,A,2339.602698,S,04631.811318,W,001.06,205.6,190723,17.8,W,A*0D
$GPRMC,174115,A,2339.602751,S,04631.811349,W,001.07,206.9,190723,17.8,W,A*00
$GPRMC,174115,A,2339.602804,S,04631.811378,W,001.06,205.5,190723,17.8,W,A*03
$GPRMC,174115,A,2339.602856,S,04631.811403,W,001.01,203.0,190723,17.8,W,A*0B
$GPRMC,174115,A,2339.602906,S,04631.811422,W,000.93,198.4,190723,17.8,W,A*03
$GPRMC,174116,A,2339.602953,S,04631.811444,W,000.87,199.6,190723,17.8,W,A*06
$GPRMC,174116,A,2339.603001,S,04631.811466,W,000.91,203.4,190723,17.8,W,A*0C
$GPRMC,174116,A,2339.603060,S,04631.811493,W,001.09,202.2,190723,17.8,W,A*06
$GPRMC,174116,A,2339.603122,S,04631.811514,W,001.17,199.2,190723,17.8,W,A*01
$GPRMC,174116,A,2339.603184,S,04631.811539,W,001.20,199.8,190723,17.8,W,A*0C
$GPRMC,174117,A,2339.603244,S,04631.811564,W,001.20,200.6,190723,17.8,W,A*07
$GPRMC,174117,A,2339.603306,S,04631.811587,W,001.19,198.5,190723,17.8,W,A*06
$GPRMC,174117,A,2339.603366,S,04631.811608,W,001.18,198.0,190723,17.8,W,A*00
$GPRMC,174117,A,2339.603426,S,04631.811631,W,001.19,199.6,190723,17.8,W,A*0F
$GPRMC,174117,A,2339.603488,S,04631.811654,W,001.20,199.5,190723,17.8,W,A*01
$GPRMC,174118,A,2339.603551,S,04631.811676,W,001.21,198.9,190723,17.8,W,A*07
$GPRMC,174118,A,2339.603613,S,04631.811698,W,001.20,200.2,190723,17.8,W,A*0A
$GPRMC,174118,A,2339.603675,S,04631.811719,W,001.19,200.3,190723,17.8,W,A*09
$GPRMC,174118,A,2339.603737,S,04631.811744,W,001.19,200.3,190723,17.8,W,A*06
$GPRMC,174118,A,2339.603798,S,04631.811771,W,001.19,200.0,190723,17.8,W,A*06
$GPRMC,174119,A,2339.603858,S,04631.811800,W,001.22,200.7,190723,17.8,W,A*02
$GPRMC,174119,A,2339.603917,S,04631.811832,W,001.23,201.5,190723,17.8,W,A*0B
$GPRMC,174119,A,2339.603978,S,04631.811864,W,001.23,202.3,190723,17.8,W,A*04
$GPRMC,174119,A,2339.604041,S,04631.811890,W,001.22,200.9,190723,17.8,W,A*02
$GPRMC,174119,A,2339.604101,S,04631.811919,W,001.20,201.5,190723,17.8,W,A*08
$GPRMC,174120,A,2339.604163,S,04631.811946,W,001.20,201.1,190723,17.8,W,A*08
$GPRMC,174120,A,2339.604227,S,04631.811971,W,001.21,199.3,190723,17.8,W,A*0E
$GPRMC,174120,A,2339.604290,S,04631.811994,W,001.20,198.4,190723,17.8,W,A*0E
$GPRMC,174120,A,2339.604356,S,04631.812020,W,001.22,200.0,190723,17.8,W,A*04
$GPRMC,174120,A,2339.604419,S,04631.812042,W,001.24,200.0,190723,17.8,W,A*0A
$GPRMC,174121,A,2339.604485,S,04631.812068,W,001.28,200.3,190723,17.8,W,A*09
$GPRMC,174121,A,2339.604552,S,04631.812097,W,001.28,200.9,190723,17.8,W,A*08
$GPRMC,174121,A,2339.604622,S,04631.812124,W,001.30,200.2,190723,17.8,W,A*07
$GPRMC,174121,A,2339.604692,S,04631.812148,W,001.31,199.0,190723,17.8,W,A*06
$GPRMC,174121,A,2339.604758,S,04631.812170,W,001.28,201.5,190723,17.8,W,A*05
$GPRMC,174122,A,2339.604819,S,04631.812196,W,001.24,200.4,190723,17.8,W,A*08
$GPRMC,174122,A,2339.604881,S,04631.812223,W,001.23,199.3,190723,17.8,W,A*07
$GPRMC,174122,A,2339.604941,S,04631.812250,W,001.21,200.9,190723,17.8,W,A*05
$GPRMC,174122,A,2339.605004,S,04631.812268,W,001.20,202.5,190723,17.8,W,A*08
$GPRMC,174122,A,2339.605069,S,04631.812282,W,001.22,205.3,190723,17.8,W,A*04
$GPRMC,174123,A,2339.605132,S,04631.812309,W,001.23,206.1,190723,17.8,W,A*08
$GPRMC,174123,A,2339.605199,S,04631.812326,W,001.27,206.2,190723,17.8,W,A*03
$GPRMC,174123,A,2339.605265,S,04631.812349,W,001.30,207.3,190723,17.8,W,A*0C
$GPRMC,174123,A,2339.605328,S,04631.812385,W,001.36,208.5,190723,17.8,W,A*0B
$GPRMC,174123,A,2339.605394,S,04631.812425,W,001.42,210.0,190723,17.8,W,A*0E
$GPRMC,174124,A,2339.605462,S,04631.812462,W,001.44,208.3,190723,17.8,W,A*08
$GPRMC,174124,A,2339.605529,S,04631.812496,W,001.40,206.4,190723,17.8,W,A*00
$GPRMC,174124,A,2339.605599,S,04631.812527,W,001.39,204.4,190723,17.8,W,A*0C
$GPRMC,174124,A,2339.605669,S,04631.812555,W,001.39,202.9,190723,17.8,W,A*0E
$GPRMC,174124,A,2339.605740,S,04631.812574,W,001.38,202.7,190723,17.8,W,A*08
$GPRMC,174125,A,2339.605814,S,04631.812597,W,001.42,201.9,190723,17.8,W,A*0A
$GPRMC,174125,A,2339.605887,S,04631.812635,W,001.46,202.8,190723,17.8,W,A*0D
$GPRMC,174125,A,2339.605964,S,04631.812670,W,001.48,201.7,190723,17.8,W,A*02
$GPRMC,174125,A,2339.606041,S,04631.812703,W,001.52,200.0,190723,17.8,W,A*07
$GPRMC,174125,A,2339.606120,S,04631.812739,W,001.55,199.9,190723,17.8,W,A*05
$GPRMC,174126,A,2339.606196,S,04631.812774,W,001.49,199.9,190723,17.8,W,A*0F
$GPRMC,174126,A,2339.606270,S,04631.812813,W,001.46,203.3,190723,17.8,W,A*0F
$GPRMC,174126,A,2339.606350,S,04631.812842,W,001.49,200.7,190723,17.8,W,A*00
$GPRMC,174126,A,2339.606427,S,04631.812875,W,001.48,200.8,190723,17.8,W,A*0D
$GPRMC,174126,A,2339.606505,S,04631.812902,W,001.48,202.7,190723,17.8,W,A*00
$GPRMC,174127,A,2339.606581,S,04631.812935,W,001.49,206.4,190723,17.8,W,A*0F
$GPRMC,174127,A,2339.606662,S,04631.812967,W,001.57,206.1,190723,17.8,W,A*0C
$GPRMC,174127,A,2339.606743,S,04631.813007,W,001.60,205.2,190723,17.8,W,A*04
$GPRMC,174127,A,2339.606822,S,04631.813051,W,001.59,205.8,190723,17.8,W,A*0F
$GPRMC,174127,A,2339.606899,S,04631.813097,W,001.55,207.1,190723,17.8,W,A*02
$GPRMC,174128,A,2339.606973,S,04631.813140,W,001.46,207.4,190723,17.8,W,A*04
$GPRMC,174128,A,2339.607036,S,04631.813168,W,001.23,204.3,190723,17.8,W,A*00
$GPRMC,174128,A,2339.607093,S,04631.813204,W,001.09,206.4,190723,17.8,W,A*0B
$GPRMC,174128,A,2339.607146,S,04631.813240,W,001.02,208.5,190723,17.8,W,A*06
$GPRMC,174128,A,2339.607199,S,04631.813272,W,000.96,208.3,190723,17.8,W,A*0F
$GPRMC,174129,A,2339.607251,S,04631.813292,W,000.90,204.2,190723,17.8,W,A*0C
$GPRMC,174129,A,2339.607298,S,04631.813318,W,000.86,205.9,190723,17.8,W,A*07
$GPRMC,174129,A,2339.607334,S,04631.813347,W,000.77,208.6,190723,17.8,W,A*06
$GPRMC,174129,A,2339.607368,S,04631.813372,W,000.70,206.4,190723,17.8,W,A*02
$GPRMC,174129,A,2339.607399,S,04631.813397,W,000.66,202.5,190723,17.8,W,A*05
$GPRMC,174130,A,2339.607432,S,04631.813423,W,000.68,203.2,190723,17.8,W,A*0B
$GPRMC,174130,A,2339.607466,S,04631.813454,W,000.76,205.1,190723,17.8,W,A*00
$GPRMC,174130,A,2339.607499,S,04631.813482,W,000.77,205.1,190723,17.8,W,A*0A
$GPRMC,174130,A,2339.607537,S,04631.813513,W,000.81,204.0,190723,17.8,W,A*0F
$GPRMC,174130,A,2339.607578,S,04631.813545,W,000.85,204.5,190723,17.8,W,A*06
$GPRMC,174131,A,2339.607618,S,04631.813576,W,000.87,207.5,190723,17.8,W,A*03
$GPRMC,174131,A,2339.607661,S,04631.813613,W,000.94,209.2,190723,17.8,W,A*06
$GPRMC,174131,A,2339.607706,S,04631.813650,W,000.99,210.3,190723,17.8,W,A*05
$GPRMC,174131,A,2339.607753,S,04631.813689,W,001.01,209.8,190723,17.8,W,A*02
$GPRMC,174131,A,2339.607804,S,04631.813734,W,001.04,210.5,190723,17.8,W,A*08
$GPRMC,174132,A,2339.607858,S,04631.813777,W,001.07,211.3,190723,17.8,W,A*01
$GPRMC,174135,A,2339.608926,S,04631.814339,W,001.27,199.2,190723,17.8,W,A*08
$GPRMC,174135,A,2339.608992,S,04631.814375,W,001.27,199.9,190723,17.8,W,A*04
$GPRMC,174135,A,2339.609062,S,04631.814406,W,001.30,196.7,190723,17.8,W,A*07
$GPRMC,174136,A,2339.609137,S,04631.814431,W,001.34,195.8,190723,17.8,W,A*09
$GPRMC,174136,A,2339.609216,S,04631.814457,W,001.37,197.2,190723,17.8,W,A*02
$GPRMC,174136,A,2339.609292,S,04631.814483,W,001.37,199.3,190723,17.8,W,A*08
$GPRMC,174136,A,2339.609368,S,04631.814498,W,001.36,197.2,190723,17.8,W,A*08
$GPRMC,174141,A,2339.610494,S,04631.814806,W,000.89,201.9,190723,17.8,W,A*0D
$GPRMC,174141,A,2339.610540,S,04631.814825,W,000.83,204.8,190723,17.8,W,A*0A
$GPRMC,174141,A,2339.610580,S,04631.814843,W,000.75,206.9,190723,17.8,W,A*0C
$GPRMC,174141,A,2339.610621,S,04631.814867,W,000.72,204.8,190723,17.8,W,A*06
$GPRMC,174141,A,2339.610672,S,04631.814897,W,000.90,202.3,190723,17.8,W,A*0E
$GPRMC,174142,A,2339.610723,S,04631.814932,W,001.02,204.6,190723,17.8,W,A*0F
$GPRMC,174142,A,2339.610773,S,04631.814964,W,001.09,208.3,190723,17.8,W,A*0B
$GPRMC,174142,A,2339.610822,S,04631.814999,W,001.13,213.1,190723,17.8,W,A*01
$GPRMC,174142,A,2339.610873,S,04631.815038,W,001.11,212.1,190723,17.8,W,A*05
$GPRMC,174142,A,2339.610924,S,04631.815073,W,001.09,210.6,190723,17.8,W,A*05
$GPRMC,174143,A,2339.610974,S,04631.815110,W,001.07,210.5,190723,17.8,W,A*08
$GPRMC,174143,A,2339.611020,S,04631.815151,W,000.99,213.3,190723,17.8,W,A*07
$GPRMC,174143,A,2339.611065,S,04631.815184,W,000.95,214.2,190723,17.8,W,A*04
$GPRMC,174143,A,2339.611113,S,04631.815207,W,000.95,213.4,190723,17.8,W,A*0D
$GPRMC,174143,A,2339.611161,S,04631.815237,W,001.02,213.8,190723,17.8,W,A*08
$GPRMC,174144,A,2339.611212,S,04631.815275,W,001.10,213.6,190723,17.8,W,A*03
$GPRMC,174144,A,2339.611263,S,04631.815314,W,001.18,216.5,190723,17.8,W,A*0D
$GPRMC,174144,A,2339.611316,S,04631.815346,W,001.21,217.1,190723,17.8,W,A*06
$GPRMC,174144,A,2339.611369,S,04631.815382,W,001.20,215.3,190723,17.8,W,A*07
$GPRMC,174144,A,2339.611424,S,04631.815414,W,001.16,212.9,190723,17.8,W,A*09
$GPRMC,174145,A,2339.611479,S,04631.815451,W,001.17,212.7,190723,17.8,W,A*0E
$GPRMC,174145,A,2339.611535,S,04631.815490,W,001.23,214.2,190723,17.8,W,A*0E
$GPRMC,174145,A,2339.611591,S,04631.815534,W,001.26,215.7,190723,17.8,W,A*0E
$GPRMC,174145,A,2339.611642,S,04631.815575,W,001.21,215.6,190723,17.8,W,A*00
$GPRMC,174145,A,2339.611691,S,04631.815607,W,001.09,211.2,190723,17.8,W,A*02
$GPRMC,174146,A,2339.611734,S,04631.815629,W,000.89,206.2,190723,17.8,W,A*0C
$GPRMC,174146,A,2339.611771,S,04631.815642,W,000.76,201.8,190723,17.8,W,A*0D
$GPRMC,174146,A,2339.611805,S,04631.815654,W,000.67,199.9,190723,17.8,W,A*05
$GPRMC,174146,A,2339.611842,S,04631.815672,W,000.69,201.3,190723,17.8,W,A*04
$GPRMC,174146,A,2339.611880,S,04631.815689,W,000.76,199.4,190723,17.8,W,A*05
$GPRMC,174147,A,2339.611917,S,04631.815709,W,000.78,202.4,190723,17.8,W,A*0D
$GPRMC,174147,A,2339.611958,S,04631.815741,W,000.89,208.2,190723,17.8,W,A*08
$GPRMC,174147,A,2339.612007,S,04631.815766,W,000.93,205.5,190723,17.8,W,A*0C
$GPRMC,174147,A,2339.612060,S,04631.815784,W,001.01,199.1,190723,17.8,W,A*09
$GPRMC,174147,A,2339.612114,S,04631.815798,W,001.02,198.4,190723,17.8,W,A*01
$GPRMC,174148,A,2339.612167,S,04631.815822,W,000.99,202.4,190723,17.8,W,A*07
$GPRMC,174148,A,2339.612213,S,04631.815852,W,000.93,209.0,190723,17.8,W,A*05
$GPRMC,174148,A,2339.612253,S,04631.815883,W,000.85,212.5,190723,17.8,W,A*05
$GPRMC,174148,A,2339.612289,S,04631.815910,W,000.73,212.2,190723,17.8,W,A*07
$GPRMC,174148,A,2339.612322,S,04631.815932,W,000.61,209.4,190723,17.8,W,A*08
$GPRMC,174149,A,2339.612354,S,04631.815957,W,000.60,211.5,190723,17.8,W,A*02
$GPRMC,174149,A,2339.612394,S,04631.815985,W,000.81,210.8,190723,17.8,W,A*02
$GPRMC,174149,A,2339.612441,S,04631.816019,W,000.98,211.5,190723,17.8,W,A*06
$GPRMC,174149,A,2339.612484,S,04631.816051,W,000.96,211.7,190723,17.8,W,A*0F
$GPRMC,174149,A,2339.612527,S,04631.816079,W,000.89,209.1,190723,17.8,W,A*0C
$GPRMC,174150,A,2339.612569,S,04631.816103,W,000.82,204.0,190723,17.8,W,A*05
$GPRMC,174150,A,2339.612605,S,04631.816126,W,000.71,203.2,190723,17.8,W,A*02
$GPRMC,174150,A,2339.612635,S,04631.816147,W,000.59,207.8,190723,17.8,W,A*02
$GPRMC,174150,A,2339.612666,S,04631.816165,W,000.53,207.4,190723,17.8,W,A*02
$GPRMC,174150,A,2339.612696,S,04631.816184,W,000.52,207.1,190723,17.8,W,A*06
$GPRMC,174151,A,2339.612723,S,04631.816202,W,000.51,206.2,190723,17.8,W,A*04
$GPRMC,174151,A,2339.612750,S,04631.816220,W,000.52,205.3,190723,17.8,W,A*01
$GPRMC,174151,A,2339.612776,S,04631.816239,W,000.54,205.4,190723,17.8,W,A*0C
$GPRMC,174151,A,2339.612801,S,04631.816257,W,000.56,204.4,190723,17.8,W,A*08
$GPRMC,174151,A,2339.612826,S,04631.816274,W,000.60,205.6,190723,17.8,W,A*0A
$GPRMC,174152,A,2339.612851,S,04631.816290,W,000.61,204.6,190723,17.8,W,A*03
$GPRMC,174152,A,2339.612878,S,04631.816309,W,000.66,205.0,190723,17.8,W,A*09
$GPRMC,174152,A,2339.612911,S,04631.816327,W,000.72,202.8,190723,17.8,W,A*01
$GPRMC,174152,A,2339.612948,S,04631.816339,W,000.76,200.3,190723,17.8,W,A*0F
$GPRMC,174152,A,2339.612991,S,04631.816353,W,000.87,201.2,190723,17.8,W,A*09
$GPRMC,174153,A,2339.613041,S,04631.816378,W,001.00,202.4,190723,17.8,W,A*0F
$GPRMC,174153,A,2339.613092,S,04631.816398,W,001.09,201.1,190723,17.8,W,A*00
$GPRMC,174153,A,2339.613145,S,04631.816415,W,001.11,199.7,190723,17.8,W,A*04
$GPRMC,174153,A,2339.613202,S,04631.816433,W,001.09,199.7,190723,17.8,W,A*09
$GPRMC,174153,A,2339.613259,S,04631.816453,W,001.07,200.5,190723,17.8,W,A*0E
$GPRMC,174154,A,2339.613311,S,04631.816474,W,000.98,200.1,190723,17.8,W,A*02
$GPRMC,174154,A,2339.613357,S,04631.816496,W,000.85,199.5,190723,17.8,W,A*07
$GPRMC,174154,A,2339.613405,S,04631.816516,W,000.82,201.3,190723,17.8,W,A*0D
$GPRMC,174154,A,2339.613456,S,04631.816532,W,000.88,200.8,190723,17.8,W,A*0D
$GPRMC,174154,A,2339.613508,S,04631.816552,W,000.92,201.2,190723,17.8,W,A*01
$GPRMC,174155,A,2339.613559,S,04631.816568,W,000.96,201.1,190723,17.8,W,A*0A
$GPRMC,174155,A,2339.613610,S,04631.816582,W,000.94,200.8,190723,17.8,W,A*0A
$GPRMC,174155,A,2339.613656,S,04631.816593,W,000.94,200.1,190723,17.8,W,A*01
$GPRMC,174155,A,2339.613699,S,04631.816601,W,000.90,201.3,190723,17.8,W,A*0D
$GPRMC,174155,A,2339.613741,S,04631.816609,W,000.89,200.5,190723,17.8,W,A*0E
$GPRMC,174156,A,2339.613792,S,04631.816627,W,000.91,200.4,190723,17.8,W,A*07
$GPRMC,174156,A,2339.613844,S,04631.816655,W,000.95,204.0,190723,17.8,W,A*02
$GPRMC,174156,A,2339.613897,S,04631.816687,W,001.02,206.3,190723,17.8,W,A*0D
$GPRMC,174156,A,2339.613952,S,04631.816711,W,001.06,203.1,190723,17.8,W,A*08
$GPRMC,174156,A,2339.614006,S,04631.816739,W,001.06,203.1,190723,17.8,W,A*0D
$GPRMC,174157,A,2339.614061,S,04631.816767,W,001.05,205.5,190723,17.8,W,A*07
$GPRMC,174157,A,2339.614115,S,04631.816790,W,001.04,205.0,190723,17.8,W,A*09
$GPRMC,174157,A,2339.614167,S,04631.816811,W,001.01,203.8,190723,17.8,W,A*01
$GPRMC,174157,A,2339.614219,S,04631.816836,W,001.00,203.9,190723,17.8,W,A*0E
$GPRMC,174157,A,2339.614272,S,04631.816857,W,001.01,203.0,190723,17.8,W,A*0C
$GPRMC,174158,A,2339.614323,S,04631.816881,W,000.99,203.0,190723,17.8,W,A*0D
$GPRMC,174158,A,2339.614368,S,04631.816897,W,000.92,204.4,190723,17.8,W,A*0D
$GPRMC,174158,A,2339.614410,S,04631.816909,W,000.82,202.2,190723,17.8,W,A*02
$GPRMC,174158,A,2339.614445,S,04631.816919,W,000.68,199.7,190723,17.8,W,A*03
$GPRMC,174158,A,2339.614476,S,04631.816932,W,000.58,201.8,190723,17.8,W,A*04
$GPRMC,174159,A,2339.614511,S,04631.816945,W,000.67,203.4,190723,17.8,W,A*07
$GPRMC,174159,A,2339.614552,S,04631.816960,W,000.85,200.9,190723,17.8,W,A*05
$GPRMC,174159,A,2339.614596,S,04631.816971,W,000.92,198.5,190723,17.8,W,A*05
$GPRMC,174159,A,2339.614654,S,04631.816997,W,001.17,203.0,190723,17.8,W,A*08
$GPRMC,174159,A,2339.614712,S,04631.817020,W,001.24,203.3,190723,17.8,W,A*0C
$GPRMC,174200,A,2339.614782,S,04631.817039,W,001.34,200.7,190723,17.8,W,A*04
$GPRMC,174200,A,2339.614847,S,04631.817055,W,001.29,198.8,190723,17.8,W,A*09
$GPRMC,174200,A,2339.614910,S,04631.817081,W,001.30,198.6,190723,17.8,W,A*05
$GPRMC,174200,A,2339.614972,S,04631.817112,W,001.31,200.4,190723,17.8,W,A*0B
$GPRMC,174200,A,2339.615039,S,04631.817148,W,001.40,203.0,190723,17.8,W,A*02
$GPRMC,174201,A,2339.615114,S,04631.817178,W,001.43,199.0,190723,17.8,W,A*0D
$GPRMC,174201,A,2339.615184,S,04631.817204,W,001.41,198.3,190723,17.8,W,A*0C
$GPRMC,174201,A,2339.615256,S,04631.817234,W,001.37,198.9,190723,17.8,W,A*08
$GPRMC,174201,A,2339.615324,S,04631.817265,W,001.35,197.4,190723,17.8,W,A*08
$GPRMC,174201,A,2339.615389,S,04631.817296,W,001.30,197.5,190723,17.8,W,A*07
$GPRMC,174202,A,2339.615464,S,04631.817323,W,001.30,197.2,190723,17.8,W,A*08
$GPRMC,174202,A,2339.615538,S,04631.817347,W,001.29,196.4,190723,17.8,W,A*0D
$GPRMC,174202,A,2339.615610,S,04631.817372,W,001.24,194.7,190723,17.8,W,A*0E
$GPRMC,174202,A,2339.615673,S,04631.817396,W,001.18,193.1,190723,17.8,W,A*0F
$GPRMC,174202,A,2339.615734,S,04631.817419,W,001.11,191.6,190723,17.8,W,A*01
$GPRMC,174203,A,2339.615785,S,04631.817441,W,001.02,191.9,190723,17.8,W,A*0A
$GPRMC,174203,A,2339.615826,S,04631.817456,W,000.84,190.2,190723,17.8,W,A*0F
$GPRMC,174203,A,2339.615865,S,04631.817472,W,000.69,191.4,190723,17.8,W,A*0A
$GPRMC,174203,A,2339.615899,S,04631.817487,W,000.58,193.3,190723,17.8,W,A*04
$GPRMC,174203,A,2339.615926,S,04631.817500,W,000.50,198.4,190723,17.8,W,A*0B
$GPRMC,174204,A,2339.615942,S,04631.817499,W,000.29,188.2,190723,17.8,W,A*06
$GPRMC,174204,A,2339.615940,S,04631.817495,W,000.14,188.2,190723,17.8,W,A*06
$GPRMC,174204,A,2339.615937,S,04631.817489,W,000.18,5.1,190723,17.8,W,A*00
$GPRMC,174204,A,2339.615941,S,04631.817484,W,000.13,5.1,190723,17.8,W,A*07
$GPRMC,174204,A,2339.615941,S,04631.817480,W,000.11,5.1,190723,17.8,W,A*01
$GPRMC,174205,A,2339.615942,S,04631.817478,W,000.10,5.1,190723,17.8,W,A*05
$GPRMC,174205,A,2339.615944,S,04631.817477,W,000.11,5.1,190723,17.8,W,A*0D
$GPRMC,174205,A,2339.615946,S,04631.817475,W,000.09,5.1,190723,17.8,W,A*04
$GPRMC,174205,A,2339.615948,S,04631.817474,W,000.09,5.1,190723,17.8,W,A*0B
$GPRMC,174205,A,2339.615949,S,04631.817474,W,000.09,5.1,190723,17.8,W,A*0A
$GPRMC,174206,A,2339.615951,S,04631.817473,W,000.08,5.1,190723,17.8,W,A*06
$GPRMC,174206,A,2339.615952,S,04631.817476,W,000.07,5.1,190723,17.8,W,A*0F
$GPRMC,174206,A,2339.615953,S,04631.817475,W,000.08,5.1,190723,17.8,W,A*02
$GPRMC,174206,A,2339.615954,S,04631.817473,W,000.07,5.1,190723,17.8,W,A*0C
$GPRMC,174206,A,2339.615955,S,04631.817471,W,000.06,5.1,190723,17.8,W,A*0E
$GPRMC,174207,A,2339.615956,S,04631.817468,W,000.06,5.1,190723,17.8,W,A*04
$GPRMC,174207,A,2339.615956,S,04631.817465,W,000.04,5.1,190723,17.8,W,A*0B
$GPRMC,174207,A,2339.615957,S,04631.817461,W,000.05,5.1,190723,17.8,W,A*0F
$GPRMC,174207,A,2339.615959,S,04631.817459,W,000.09,5.1,190723,17.8,W,A*06
$GPRMC,174207,A,2339.615962,S,04631.817457,W,000.09,5.1,190723,17.8,W,A*00
$GPRMC,174208,A,2339.615963,S,04631.817456,W,000.09,5.1,190723,17.8,W,A*0F
$GPRMC,174208,A,2339.615965,S,04631.817455,W,000.09,5.1,190723,17.8,W,A*0A
$GPRMC,174208,A,2339.615966,S,04631.817454,W,000.10,5.1,190723,17.8,W,A*00
$GPRMC,174208,A,2339.615969,S,04631.817453,W,000.08,5.1,190723,17.8,W,A*01
$GPRMC,174208,A,2339.615969,S,04631.817453,W,000.09,5.1,190723,17.8,W,A*00
$GPRMC,174209,A,2339.615972,S,04631.817453,W,000.09,5.1,190723,17.8,W,A*0B
$GPRMC,174209,A,2339.615974,S,04631.817451,W,000.08,5.1,190723,17.8,W,A*0E
$GPRMC,174209,A,2339.615975,S,04631.817450,W,000.08,5.1,190723,17.8,W,A*0E
$GPRMC,174209,A,2339.615976,S,04631.817449,W,000.06,5.1,190723,17.8,W,A*0B
$GPRMC,174209,A,2339.615977,S,04631.817448,W,000.04,5.1,190723,17.8,W,A*09
$GPRMC,174210,A,2339.615977,S,04631.817448,W,000.04,5.1,190723,17.8,W,A*01
$GPRMC,174210,A,2339.615977,S,04631.817449,W,000.06,5.1,190723,17.8,W,A*02
$GPRMC,174210,A,2339.615978,S,04631.817449,W,000.06,5.1,190723,17.8,W,A*0D
$GPRMC,174210,A,2339.615977,S,04631.817450,W,000.09,5.1,190723,17.8,W,A*05
$GPRMC,174210,A,2339.615977,S,04631.817450,W,000.08,5.1,190723,17.8,W,A*04
$GPRMC,174211,A,2339.615977,S,04631.817451,W,000.05,5.1,190723,17.8,W,A*09
$GPRMC,174211,A,2339.615977,S,04631.817451,W,000.02,5.1,190723,17.8,W,A*0E
$GPRMC,174211,A,2339.615977,S,04631.817451,W,000.03,5.1,190723,17.8,W,A*0F
$GPRMC,174211,A,2339.615977,S,04631.817452,W,000.03,5.1,190723,17.8,W,A*0C
$GPRMC,174211,A,2339.615977,S,04631.817453,W,000.04,5.1,190723,17.8,W,A*0A
$GPRMC,174212,A,2339.615977,S,04631.817454,W,000.03,5.1,190723,17.8,W,A*09
$GPRMC,174212,A,2339.615977,S,04631.817455,W,000.02,5.1,190723,17.8,W,A*09
$GPRMC,174212,A,2339.615977,S,04631.817456,W,000.04,5.1,190723,17.8,W,A*0C
$GPRMC,174212,A,2339.615977,S,04631.817457,W,000.06,5.1,190723,17.8,W,A*0F
$GPRMC,174212,A,2339.615977,S,04631.817458,W,000.07,5.1,190723,17.8,W,A*01
$GPRMC,174213,A,2339.615976,S,04631.817458,W,000.07,5.1,190723,17.8,W,A*01
$GPRMC,174213,A,2339.615976,S,04631.817459,W,000.07,5.1,190723,17.8,W,A*00
$GPRMC,174213,A,2339.615976,S,04631.817459,W,000.07,5.1,190723,17.8,W,A*00
$GPRMC,174213,A,2339.615976,S,04631.817460,W,000.06,5.1,190723,17.8,W,A*0B
$GPRMC,174213,A,2339.615976,S,04631.817460,W,000.05,5.1,190723,17.8,W,A*08
$GPRMC,174214,A,2339.615976,S,04631.817460,W,000.06,5.1,190723,17.8,W,A*0C
$GPRMC,174214,A,2339.615975,S,04631.817460,W,000.07,5.1,190723,17.8,W,A*0E
$GPRMC,174214,A,2339.615975,S,04631.817460,W,000.08,5.1,190723,17.8,W,A*01
$GPRMC,174214,A,2339.615975,S,04631.817459,W,000.08,5.1,190723,17.8,W,A*0B
$GPRMC,174214,A,2339.615974,S,04631.817458,W,000.09,5.1,190723,17.8,W,A*0A
$GPRMC,174215,A,2339.615973,S,04631.817458,W,000.10,5.1,190723,17.8,W,A*04
$GPRMC,174215,A,2339.615972,S,04631.817458,W,000.09,5.1,190723,17.8,W,A*0D
$GPRMC,174215,A,2339.615972,S,04631.817458,W,000.10,5.1,190723,17.8,W,A*05
$GPRMC,174215,A,2339.615972,S,04631.817457,W,000.14,5.1,190723,17.8,W,A*0E
$GPRMC,174215,A,2339.615971,S,04631.817458,W,000.12,5.1,190723,17.8,W,A*04
$GPRMC,174216,A,2339.615971,S,04631.817457,W,000.10,5.1,190723,17.8,W,A*0A
$GPRMC,174216,A,2339.615971,S,04631.817457,W,000.09,5.1,190723,17.8,W,A*02
$GPRMC,174216,A,2339.615970,S,04631.817457,W,000.07,5.1,190723,17.8,W,A*0D
$GPRMC,174216,A,2339.615970,S,04631.817458,W,000.06,5.1,190723,17.8,W,A*03
$GPRMC,174216,A,2339.615970,S,04631.817458,W,000.04,5.1,190723,17.8,W,A*01
$GPRMC,174217,A,2339.615969,S,04631.817459,W,000.02,5.1,190723,17.8,W,A*0F
$GPRMC,174217,A,2339.615968,S,04631.817459,W,000.02,5.1,190723,17.8,W,A*0E
$GPRMC,174217,A,2339.615967,S,04631.817460,W,000.04,5.1,190723,17.8,W,A*0D
$GPRMC,174217,A,2339.615967,S,04631.817461,W,000.04,5.1,190723,17.8,W,A*0C
$GPRMC,174217,A,2339.615967,S,04631.817461,W,000.05,5.1,190723,17.8,W,A*0D
$GPRMC,174218,A,2339.615966,S,04631.817462,W,000.06,5.1,190723,17.8,W,A*03
$GPRMC,174218,A,2339.615965,S,04631.817463,W,000.07,5.1,190723,17.8,W,A*00
$GPRMC,174218,A,2339.615964,S,04631.817464,W,000.07,5.1,190723,17.8,W,A*06
$GPRMC,174218,A,2339.615964,S,04631.817465,W,000.08,5.1,190723,17.8,W,A*08
$GPRMC,174218,A,2339.615963,S,04631.817466,W,000.08,5.1,190723,17.8,W,A*0C
$GPRMC,174219,A,2339.615962,S,04631.817466,W,000.11,5.1,190723,17.8,W,A*04
$GPRMC,174219,A,2339.615961,S,04631.817466,W,000.11,5.1,190723,17.8,W,A*07
$GPRMC,174219,A,2339.615960,S,04631.817467,W,000.10,5.1,190723,17.8,W,A*06
$GPRMC,174219,A,2339.615959,S,04631.817467,W,000.08,5.1,190723,17.8,W,A*05
$GPRMC,174219,A,2339.615958,S,04631.817468,W,000.08,5.1,190723,17.8,W,A*0B
$GPRMC,174220,A,2339.615957,S,04631.817469,W,000.08,5.1,190723,17.8,W,A*0F
$GPRMC,174220,A,2339.615957,S,04631.817467,W,000.09,5.1,190723,17.8,W,A*00
$GPRMC,174220,A,2339.615956,S,04631.817467,W,000.08,5.1,190723,17.8,W,A*00
$GPRMC,174220,A,2339.615955,S,04631.817470,W,000.07,5.1,190723,17.8,W,A*0A
$GPRMC,174220,A,2339.615954,S,04631.817468,W,000.07,5.1,190723,17.8,W,A*02
$GPRMC,174221,A,2339.615953,S,04631.817470,W,000.06,5.1,190723,17.8,W,A*0C
$GPRMC,174221,A,2339.615951,S,04631.817471,W,000.06,5.1,190723,17.8,W,A*0F
$GPRMC,174221,A,2339.615952,S,04631.817468,W,000.08,5.1,190723,17.8,W,A*0A
